title,rating,reviewCount,category,attributes,address,phoneNumber,monday,tuesday,wednesday,thursday,friday,saturday,sunday,imgUrl,latitude,longitude
Forza Wine Bar & Restaurant,4.2,1671,Restaurant,Dine-in;Takeout;Delivery;,Лондонска 12a Skopje 1000,+389 2 307 1200,8AM–12AM,8AM–12AM,8AM–12AM,8AM–1AM,8AM–1AM,8AM–1AM,8AM–12AM,https://lh5.googleusercontent.com/p/AF1QipPoB7uWFLRWyFRmQBk-ero7rCPi96UvXpy5UJlX=w408-h272-k-no,41.9996875,21.3906875
Caffe Bar 8,4.5,23,Restaurant,Delivery;,Bitpazarska 58 Skopje 1000,+389 70 383 188,9AM–12AM,9AM–12AM,9AM–12AM,9AM–12AM,9AM–12AM,9AM–12AM,5PM–12AM,https://lh5.googleusercontent.com/p/AF1QipMCanOvarEB9xFdYzsbp5yLeU7rezeBL0KMMPN1=w408-h306-k-no,41.9998125,21.4374375
Kolektiv,4.4,762,Restaurant,Dine-in;Takeaway;,11th October Square Macedonia Skopje 1000,+389 2 314 4345,8AM–12AM,8AM–12AM,8AM–12AM,8AM–12AM,8AM–12AM,8AM–12AM,8AM–12AM,https://lh5.googleusercontent.com/p/AF1QipNMTAZ0QUs9lgo_c3KdtBlpxIXJJmAx6x38me8=w845-h240-k-no,41.9958125,21.4319375
Tribeca Restaurant & Bar,4.5,659,Restaurant,Dine-in;Takeaway;Delivery;,Public Enterprise Parks and Greenery Boulevard Ilinden 1000 Skopje 1000,+389 70 303 413,8AM–12AM,8AM–12AM,8AM–12AM,8AM–12AM,8AM–12AM,8AM–12AM,8AM–12AM,https://lh5.googleusercontent.com/p/AF1QipPDSPDUyaAQWK7UzsCFMQHBdmQSCgNDyr74sNhh=w408-h544-k-no,42.0074375,21.4114375
Restaurant „Distrikt“,4.5,772,Restaurant,Dine-in;Takeaway;Delivery;,Plostad Makedonija 7 Skopje 1000,+389 71 238 522,7AM–12AM,7AM–12AM,7AM–12AM,7AM–12AM,7AM–1AM,7:30AM–1AM,7AM–12AM,https://lh5.googleusercontent.com/p/AF1QipP-rrzrIWwiwLxzvRlYeU67wyVZFgh1babYsdc1=w408-h272-k-no,41.9961875,21.4304375
Three Kitchen & Bar,4.3,418,Restaurant,Dine-in;Takeaway;,50-та Дивизија 25 Skopje 1000,+389 70 282 788,9AM–12AM,9AM–12AM,9AM–12AM,9AM–12AM,9AM–1AM,9AM–1AM,Closed,https://lh5.googleusercontent.com/p/AF1QipMlocjiMEUx8I1wwiQWpOjaTCT8tEzgfY85QZIh=w408-h306-k-no,41.9906875,21.4253125
Brick Eat Restaurant & Bar,4.2,362,Restaurant,Dine-in;Takeaway;No-contact delivery;,Kej 13. Noemvri Skopje 1000,+389 76 220 858,9AM–1AM,9AM–1AM,9AM–1AM,9AM–1AM,9AM–1AM,9AM–1AM,9AM–1AM,https://lh5.googleusercontent.com/p/AF1QipOVzznqR8EUKsKOjJd1bdgGyT2Mv2Ptv6xWvsAR=w408-h543-k-no,42.0064375,21.4268125
Skara Bar,4.5,809,Restaurant,Dine-in;Takeaway;,Varsavska 70 Skopje 1000,+389 75 727 110,9AM–12AM,9AM–12AM,9AM–12AM,9AM–12AM,9AM–1AM,9AM–1AM,12–8PM,https://lh5.googleusercontent.com/p/AF1QipO9iEnLKiQvbNm4H6agoFtOURdPuSCAHG09Wze0=w408-h544-k-no,42.0016875,21.3924375
1Sh Lounge Bar,4.4,218,Restaurant,Dine-in;Takeaway;Delivery;,MK Lazo trpovski bb Skopje 1000,+389 78 297 297,8AM–12AM,8AM–12AM,8AM–12AM,8AM–12AM,8AM–12AM,8AM–12AM,8AM–12AM,https://lh5.googleusercontent.com/p/AF1QipNCFrRdVjPzt0WmTbttv64Qgmv4l90GyWJ-jjju=w408-h308-k-no,42.0243125,21.4356875
Meze,4.3,885,Restaurant,Dine-in;Takeaway;,Бул. Кузман Јосифовски Питу бб Skopje 1000,+389 2 612 1214,9AM–12AM,9AM–12AM,9AM–12AM,9AM–12AM,9AM–1AM,9AM–1AM,9AM–12AM,https://lh5.googleusercontent.com/p/AF1QipNYuYyawGeTpUZG_WG6269kyOsDBUUJyv5Ip5L_=w408-h544-k-no,41.9898125,21.4493125
Amigos,4.5,1391,Restaurant,Dine-in;Takeaway;Delivery;Mexican,Macedonia 11 Skopje 1000,+389 71 230 315,9AM–12AM,9AM–12AM,9AM–12AM,9AM–12AM,9AM–1AM,9AM–1AM,10AM–12AM,https://lh5.googleusercontent.com/p/AF1QipPsDi2vX098HFN2f10M-RrKzfjVpO7It61aNONF=w408-h331-k-no,41.9933125,21.4300625
Madison Garden,4.1,30,Restaurant,Dine-in;Takeaway;Delivery;,Boulevard Saint Clement of Ohrid 29 Skopje 1000,+389 76 873 853,8AM–12AM,8AM–12AM,8AM–12AM,8AM–12AM,8AM–12AM,8AM–12AM,Closed,https://lh5.googleusercontent.com/p/AF1QipM8xgg5Q_DR-Z5JPo-dmh98DmnywqPadgUD4PE1=w408-h544-k-no,41.9939375,21.4258125
Skybar - Russia Hotel,4.7,46,Restaurant,Dine-in;,AVNOJ Blvd 22 Skopje 1000,+389 2 240 0030,Closed,8PM–3AM,8PM–3AM,8PM–3AM,8PM–3AM,8PM–3AM,8PM–3AM,https://lh5.googleusercontent.com/p/AF1QipOZK9S90DAQyv6WwN3WGzevnBqGkrlM5eLwK-XS=w408-h725-k-no,41.9930625,21.4654375
EQUILIBRIUM Restaurant & Coffee Bar,4.5,1980,Restaurant,Dine-in;Takeaway;Delivery;Modern European,Metodija Shatorov-Sharlo 11 Skopje 1000,+389 2 609 0555,8AM–12AM,8AM–12AM,8AM–12AM,8AM–12AM,8AM–1AM,8AM–1AM,8AM–12AM,https://lh5.googleusercontent.com/p/AF1QipNVG7XmYaCHuSfobxQOgb2mNmcwC1hPcfKfKRYr=w408-h272-k-no,41.9865625,21.4541875
La Terrazza Restaurant,4.4,1457,Restaurant,Dine-in;Takeaway;Italian,Plostad Makedonija Skopje 1000,+389 2 311 3380,8AM–12AM,8AM–12AM,8AM–12AM,8AM–12AM,9AM–1AM,9AM–1AM,10AM–12AM,https://lh5.googleusercontent.com/p/AF1QipM0Qg_83I80ZGc52p1vHzcrr90mIxFFJHPlV1RD=w408-h306-k-no,41.9951875,21.4316875
Distrikt,4.5,772,Restaurant,Dine-in;Takeaway;Delivery;,Plostad Makedonija 7 Skopje 1000,+389 71 238 522,7AM–12AM,7AM–12AM,7AM–12AM,7AM–12AM,7AM–1AM,7:30AM–1AM,7AM–12AM,https://lh5.googleusercontent.com/p/AF1QipP-rrzrIWwiwLxzvRlYeU67wyVZFgh1babYsdc1=w408-h272-k-no,41.9961875,21.4304375
Taverna Toscana,4.7,72,Restaurant,Dine-in;Takeaway;,Митрополит Теодосиј Гoлоганов 72 Скопје 1000 Mitropolit Teodosij Gologanov 72 Skopje 1000,+389 72 305 802,2PM–12AM,2PM–12AM,2PM–12AM,2PM–12AM,2PM–1AM,2PM–1AM,2PM–12AM,https://lh5.googleusercontent.com/p/AF1QipMLYZGS-no2A65TgOgv154EJu4huN85KbpTP5SL=w408-h306-k-no,41.9960625,21.4090625
Old City House,4.5,1715,Restaurant,Dine-in;Takeaway;Eastern European,Boulevard Phillip the Second of Macedon 14 Skopje 1000,+389 2 313 1376,8AM–12AM,8AM–12AM,8AM–12AM,8AM–12AM,8AM–12AM,12PM–12AM,Closed,https://lh5.googleusercontent.com/p/AF1QipNggdkfclL5-VoFLMjMp637O4CZfH9Sk6I3Clm0=w408-h306-k-no,41.9969375,21.4383125
Gino,4.4,1673,Restaurant,Dine-in;Takeaway;Delivery;,GTC floor 1 loc. 205 Skopje 1000,+389 2 312 1109,9AM–12AM,9AM–12AM,9AM–12AM,9AM–12AM,9AM–1AM,9AM–1AM,9AM–1AM,https://lh5.googleusercontent.com/p/AF1QipP3ah7aEf8fOyLfbsdHDj8HEWYPZKVoiTpVt4Zq=w408-h306-k-no,41.9943125,21.4340625
Restaurant Dva Еlena,4.4,560,Restaurant,Dine-in;Takeaway;Delivery;,Zagrebska 31 Skopje 1000,+389 2 306 0900,10:30AM–12AM,10:30AM–12AM,10:30AM–12AM,10:30AM–12AM,10:30AM–1AM,10:30AM–1AM,10:30AM–11PM,https://lh5.googleusercontent.com/p/AF1QipPfmQFfIwMXldl_tFfES2kjrucpIVjlmBzFucpk=w426-h240-k-no,41.9929375,21.4079375
National Restaurant Makedonska Kukja,4.4,962,Restaurant,Dine-in;Takeaway;Delivery;Eastern European,Teodosie Gologanov no 63 nearby Alumina Mitropolit Teodosij Gologanov Skopje 1000,+389 2 329 6415,8AM–12AM,8AM–12AM,8AM–12AM,8AM–12AM,8AM–1AM,8AM–1AM,8AM–12AM,https://lh5.googleusercontent.com/p/AF1QipPDf0-Ec1YiZhQBtox94WKbIovvQUc7uArA8vbx=w408-h271-k-no,41.9960625,21.4021875
Vodenica Mulino,4.6,751,Restaurant,Dine-in;Takeaway;,Mitropolit Teodosij Gologanov 69 Skopje 1000,+389 2 323 2877,12PM–12AM,12PM–12AM,12PM–12AM,12PM–12AM,12PM–12AM,12PM–12AM,Closed,https://lh5.googleusercontent.com/p/AF1QipN-ySFGU_BxxEoz6BWfV3uDsUNry38DDWMlL9Vn=w426-h240-k-no,41.9948125,21.4135625
Carpe Diem - Fine Wine & Dine,4.4,957,Restaurant,Dine-in;Takeaway;,MK Кеј 13-ти Ноември Skopje 1000,+389 70 355 750,9AM–12AM,9AM–12AM,9AM–12AM,9AM–12AM,9AM–12AM,9AM–12AM,9AM–12AM,https://lh5.googleusercontent.com/p/AF1QipOFuhCT1saCtTht50lM29oO-uYQOtLK2AVcx3ZJ=w408-h240-k-no-pi0.02126462-ya42.092587-ro0.40229648-fo100,41.9951875,21.4354375
Skopski Merak,4.6,3143,Restaurant,Dine-in;Kerbside pickup;Delivery;Eastern European,Ul Debarca St 51 Skopje 1000,+389 78 343 630,9AM–1AM,9AM–1AM,9AM–1AM,9AM–1AM,9AM–1AM,9AM–1AM,11AM–1AM,https://lh5.googleusercontent.com/p/AF1QipMYgG54nOJkAcB8nccafl38JjhZeawcB4ivgAkJ=w408-h272-k-no,42.0010625,21.4199375
Dukat Gostilnica,4.6,2033,Restaurant,Dine-in;Takeaway;,MK Boulevard Mitropolit Teodosij Gologanov 79 Skopje 1000,+389 72 306 198,8AM–12AM,8AM–12AM,8AM–12AM,8AM–12AM,8AM–1AM,8AM–1AM,8AM–12AM,https://lh5.googleusercontent.com/p/AF1QipNi-uZVLUCE8NHOGqSWi82VHCfIfwFR3HKZI3K6=w408-h281-k-no,41.9949375,21.4129375
Destan,4,1384,Restaurant,Dine-in;Takeaway;Barbecue,Казанџиска Skopje 1000,+389 2 322 4063,9AM–11PM,9AM–11PM,9AM–11PM,9AM–11PM,9AM–11PM,9AM–11PM,9AM–11PM,https://lh5.googleusercontent.com/p/AF1QipNxdzlH3giLe3jx7tc2ev9vMoa12EbGh7bWy9wA=w408-h306-k-no,41.9998125,21.4360625
Pelister,4.5,2223,Restaurant,;,Boulevard Macedonia Skopje 1000,+389 2 311 2482,10AM–12AM,10AM–12AM,10AM–12AM,10AM–12AM,10AM–12AM,10AM–12AM,10AM–11PM,https://lh5.googleusercontent.com/p/AF1QipNNpdRSgx9_P7ATIGYZo4QxYZLTGrM3bn_oJKHN=w408-h306-k-no,41.9953125,21.4314375
Olive,4.5,229,Restaurant,Dine-in;Takeaway;,Pariska Skopje 1000,+389 2 306 6623,9AM–10PM,9AM–10PM,9AM–10PM,9AM–10PM,9AM–10PM,9AM–6PM,Closed,https://lh5.googleusercontent.com/p/AF1QipNe-6nHfWLKzEFKp68CVB6xI1n4ehXq7XjUqa9h=w408-h272-k-no,42.0015625,21.4014375
Lyra,4.4,528,Restaurant,Dine-in;Takeaway;,Nikola Tesla 11 Skopje 1000,+389 2 308 3020,9AM–12AM,9AM–12AM,9AM–12AM,9AM–12AM,9AM–1AM,9AM–1AM,9AM–12AM,https://lh5.googleusercontent.com/p/AF1QipMWVVytD3ntsl4fKydoIDa1e4pILLjEYM6-XjbV=w426-h240-k-no,42.0059375,21.4109375
"Gradska Kafeana ""Kaj Jole""",4.5,371,Restaurant,Dine-in;Takeaway;,Maksim Gorki 18 Skopje 1000,+389 2 320 0099,8AM–12AM,8AM–12AM,8AM–12AM,8AM–12AM,8AM–1AM,8AM–1AM,Closed,https://lh5.googleusercontent.com/p/AF1QipO1YOmPuyW5ZQ5pHu79uBcmRnTDvWVBFT8ZNbnf=w408-h543-k-no,41.9964375,21.4283125
Chardak,4.3,546,Restaurant,Dine-in;Takeaway;Eastern European,MK Gjorgji Peshkov Skopje 1000,+389 70 410 919,8:30AM–12AM,8:30AM–12AM,8:30AM–12AM,8:30AM–12AM,8:30AM–1AM,8:30AM–12AM,8:30AM–12AM,https://lh5.googleusercontent.com/p/AF1QipPf1y3lRAHbXnWjKRAe0MNtPHZ7KjSwXkcATnjp=w481-h240-k-no,42.0020625,21.4221875
Sidro,4.5,583,Restaurant,Dine-in;Takeaway;Seafood,Атинска 21 Skopje 1000,+389 71 277 076,1–11PM,9AM–12AM,9AM–12AM,9AM–12AM,9AM–12AM,9AM–12AM,12–7PM,https://lh5.googleusercontent.com/p/AF1QipNTPSwJt7KkwY8P9f6XyqDsCIaPFg2C1EQUtSl4=w427-h240-k-no,41.9974375,21.4098125
Trend,3.9,1824,Restaurant,Dine-in;Takeaway;Delivery;,4 Nikola Vapcarov 2 Skopje 1000,+389 71 368 846,8AM–12AM,8AM–12AM,8AM–12AM,8AM–12AM,8AM–1AM,9AM–1AM,9AM–12AM,https://lh5.googleusercontent.com/p/AF1QipN4-m8XRr61-17AMSCfRV-M1S1YayEkUDzRVS73=w506-h240-k-no,41.9958125,21.4306875
Pivnica An,4.4,157,Restaurant,Dine-in;Takeaway;,Gradishte 14 Skopje 1000,+389 2 321 2111,9:30AM–12AM,9:30AM–12AM,9:30AM–12AM,9:30AM–12AM,9:30AM–1AM,9:30AM–1AM,12:30PM–12AM,https://lh5.googleusercontent.com/p/AF1QipOXyL7fzoT5NMfnqQKchCFSL2CbGljPmMWulRZU=w408-h306-k-no,42.0000625,21.4366875
La Puerta,4.5,273,Restaurant,Dine-in;Takeaway;Delivery;,ГТЦ Први Кат страна на жена парк Skopje Skopje MK 1000,+389 78 442 897,8AM–11PM,8AM–11PM,8AM–11PM,8AM–11PM,8AM–11PM,8AM–11PM,Closed,https://lh5.googleusercontent.com/p/AF1QipNyAuraAk82HRKKcybkSirxJRn7tLi1gx17dA8K=w408-h306-k-no,41.9945625,21.4336875
Nadžak,4.5,753,Restaurant,Dine-in;Kerbside pickup;Delivery;,MK Orce Nikolov 105 Skopje 1000,+389 75 438 148,9AM–1AM,9AM–1AM,9AM–1AM,9AM–1AM,9AM–1AM,9AM–1AM,9AM–1AM,https://lh5.googleusercontent.com/p/AF1QipOmvuXdeumZbtNyIFtIISFTRx6KNfbYJkD4lrU9=w408-h271-k-no,42.0014375,21.4214375
Baba Cana Vodno,4.4,1155,Restaurant,Dine-in;Takeaway;,Partenija Zografski 34 Skopje 1000,+389 2 312 6390,8AM–12AM,8AM–12AM,8AM–12AM,8AM–12AM,8AM–1AM,8AM–1AM,12–10PM,https://lh5.googleusercontent.com/p/AF1QipNlbzOLkNKRyXA3ABtHwMgBa0BtichVe8pOSzke=w408-h306-k-no,41.9868125,21.4194375
Restaurant Kaj Pero,4.4,577,Restaurant,Dine-in;Takeaway;Delivery;,Orce Nikolov 109 Skopje 1000,+389 2 323 2898,Closed,2PM–12AM,2PM–12AM,2PM–12AM,2PM–1AM,2PM–1AM,2PM–12AM,https://lh5.googleusercontent.com/p/AF1QipNMs4kcxcwlCyMM6E2e8YKRixlcLYZqq_p0QZZ5=w408-h306-k-no,42.0015625,21.4208125
Restaurant Harmony,4.7,36,Restaurant,Dine-in;Takeout;Macrobiotic,Miroslav Krleza Skopje 1000,+389 2 521 3466,10AM–6PM.,10AM–6PM.,10AM–6PM.,10AM–6PM.,10AM–6PM.,Closed,Closed,https://lh5.googleusercontent.com/p/AF1QipP8e1vCJBCWwREOREci5es17CCEj7uje4Qq7cOr=w408-h306-k-no,41.9975625,21.4240625
Plaza de Toros,4.2,1468,Restaurant,Dine-in;Takeout;,Kej 13-ti Noemvri no.65 Skopje 1000,+389 2 322 8155,8AM–12AM,8AM–12AM,8AM–12AM,8AM–12AM,8AM–1AM,9AM–1AM,8AM–12AM,https://lh5.googleusercontent.com/p/AF1QipM2XNmB_1oZ6i2riBT7aclXyF2YmpzPubwmjUdp=w408-h306-k-no,41.9951875,21.4351875
Antica,4.6,421,Restaurant,Dine-in;Curbside pickup;,MK Debarca 53 Skopje 1000,+389 77 855 863,10AM–12AM,10AM–12AM,10AM–12AM,10AM–12AM,10AM–12AM,12PM.–1AM,Closed,https://lh5.googleusercontent.com/p/AF1QipOTOQMo0mAxqQWCQdXFwYuXG-atP57MjS_WV3Ai=w408-h306-k-no,42.0011875,21.4196875
Idadija M,4.4,345,Restaurant,Dine-in;Takeout;Delivery;,MK Zivko MK Zhivko Chingo 1 Skopje 1000,+389 2 312 1312,10AM–12AM,10AM–12AM,10AM–12AM,10AM–12AM,10AM–1AM,12PM.–1AM,Closed,https://lh5.googleusercontent.com/p/AF1QipOoTRUbUq6gEAzHT80BLiudgl0TnjZ2giY8eSr7=w493-h240-k-no,42.0013125,21.4209375
Restoran Domini,4.5,185,Restaurant,Dine-in;Takeout;,Boulevard Krushevska Republika 27-21 Skopje 1000,+389 70 242 388,9AM–12AM,9AM–12AM,9AM–12AM,9AM–12AM,9AM–12AM,9AM–12AM,9AM–10PM.,https://lh5.googleusercontent.com/p/AF1QipOnIWEO9pMwf3wUl1SWAs2-ZgjAQlS-hfEfhgwn=w408-h544-k-no,41.9909375,21.4409375
Restaurant Merkez,3.9,108,Restaurant,Dine-in;Takeout;Turkish,Old Bazaar Skopje 1000,+389 71 539 100,8AM–12AM,8AM–12AM,8AM–12AM,8AM–12AM,8AM–12AM,8AM–12AM,8AM–12AM,https://lh5.googleusercontent.com/p/AF1QipOr4-rmfjsDhKqADIpd-7mXZCY6IxKMF2tVi3wV=w408-h306-k-no,42.0004375,21.4368125
Bure - Barrel,4.1,334,Restaurant,Dine-in;Takeout;,Bulevar Partizanski Odredi 62 A/1 -8 C5 Skopje 1000,+389 77 596 066,8AM–12AM,8AM–12AM,8AM–12AM,8AM–12AM,8AM–1AM,8AM–1AM,8AM–12AM,https://lh5.googleusercontent.com/p/AF1QipMPqwJHqPhGLTHCQ8Qe8xXnuw7zaEdt9ek78OhF=w408-h408-k-no,42.0030625,21.4001875
Vavilon Restaurant,4.3,56,Restaurant,Dine-in;Takeout;,1000 Skopje 1000,,9AM–1AM,9AM–1AM,9AM–1AM,9AM–1AM,9AM–1AM,9AM–1AM,9AM–1AM,https://lh5.googleusercontent.com/p/AF1QipOe1WoWiuoww_BvUuXbirCzGio3LSvehQiMaGV-=w408-h544-k-no,42.0004375,21.4369375
Soul Kitchen - Macedonian Wine & Cuisine,4.4,1837,Restaurant,Dine-in;Takeout;Delivery;Soul food,MK Кеј 13-ти Ноември Skopje 1000,+389 78 887 733,8AM–12AM,8AM–12AM,8AM–12AM,8AM–12AM,8AM–1AM,8AM–1AM,8AM–12AM,https://lh5.googleusercontent.com/p/AF1QipOiknoNT1O_8StaCNKoygSsVF6ujM65ub1gJtqw=w426-h240-k-no,41.9955625,21.4339375
Skadarlija,4.4,370,Restaurant,Dine-in;Takeout;,Orce Nikolov Skopje 1000,+389 2 305 2717,9AM–12AM,9AM–12AM,9AM–12AM,9AM–12AM,9AM–1AM,9AM–1AM,12–8PM.,https://lh5.googleusercontent.com/p/AF1QipOfHd6aHnFpvEkn0MRpcM8lc7ToN_MxBMsmYQ_a=w408-h272-k-no,42.0045625,21.4146875
Light,4.5,234,Restaurant,Dine-in;Takeout;Delivery;,Mitropolit Teodosij Gologanov 49 Skopje 1000,+389 71 386 386,8AM–12AM,8AM–12AM,8AM–12AM,8AM–12AM,8AM–12AM,9AM–12AM,Closed,https://lh5.googleusercontent.com/p/AF1QipM99v6Jd0HyVYpGEibevHWfyFMydO9Ee5fgUHSz=w408-h240-k-no-pi0-ya240-ro0-fo100,41.9946875,21.4209375
Casablanca Restaurant,4.7,325,Restaurant,Dine-in;Takeout;,Skopje 1000,+389 70 398 634,8AM–12AM,8AM–12AM,8AM–12AM,8AM–12AM,8AM–12AM,8AM–12AM,Closed,https://lh5.googleusercontent.com/p/AF1QipOjer1j2-fH8_SHRtzoJmXn8Ndpy55tmHcmIfuP=w493-h240-k-no,42.0070625,21.4261875
St. Patrick,4.4,2196,Restaurant,Dine-in;Takeout;,Кеј 13-ти Ноември 8 Skopje 1000,+389 2 325 6337,8AM–12AM,8AM–12AM,8AM–12AM,8AM–12AM,8AM–1AM,8AM–1AM,8AM–12AM,https://lh5.googleusercontent.com/p/AF1QipOjgwKcQrfTpM-HNp54S8ewqEyP2c105IUEIfPl=w408-h306-k-no,41.9950625,21.4356875
511,4.5,122,Restaurant,Dine-in;Takeout;Delivery;Pizza,MK Vasil Gjorgov 29 Skopje 1000,+389 2 321 3735,9AM–12AM,9AM–12AM,9AM–12AM,9AM–12AM,9AM–12AM,12PM.–12AM,12PM.–12AM,https://lh5.googleusercontent.com/p/AF1QipMXk5i_zwvr5vU-wcNP8AfoNp6P1fGjULNQ59fc=w426-h240-k-no,41.9924375,21.4163125
Restaurant Buket,4.2,83,Restaurant,Dine-in;Curbside pickup;Delivery;,MK Boulevard Saint Clement of Ohrid Skopje 1000,+389 2 311 2112,9AM–6PM.,9AM–6PM.,9AM–6PM.,9AM–6PM.,9AM–6PM.,9AM–6PM.,Closed,https://lh5.googleusercontent.com/p/AF1QipPOkFtVmyFOebk7mM5c5OM0AurK956ScvRWhCrx=w408-h459-k-no,41.9945625,21.4244375
Matto Napoletano,4.6,224,Restaurant,Dine-in;Curbside pickup;Italian,Debarca 2a Skopje 1000,+389 71 343 063,8AM–11:30PM.,8AM–11:30PM.,8AM–11:30PM.,8AM–11:30PM.,8AM–11:30PM.,8AM–11PM.,8AM–11:30PM.,https://lh5.googleusercontent.com/p/AF1QipPG4ggYsvcp2WXZwYAkAMVbfkDQ-dyojrh5PqwR=w408-h272-k-no,41.9963125,21.4243125
Jadica Restoran,4.6,180,Restaurant,Dine-in;Takeout;Seafood,Varsavska 6 Skopje 1000,+389 2 307 1001,8AM–12AM,8AM–12AM,8AM–12AM,8AM–12AM,8AM–12AM,8AM–12AM,8AM–9PM.,https://lh5.googleusercontent.com/p/AF1QipNH3j8jvmzW4n7UQUTIVFUKrS9qMYjoUNfAR33a=w408-h306-k-no,42.0003125,21.4019375
Granche Restaurant,4.9,16,Restaurant,Dine-in;Takeout;,Boulevard 8-mi Septemvri 18 Skopje 1000,+389 70 353 611,8AM–12AM,8AM–12AM,8AM–12AM,8AM–12AM,8AM–12AM,8AM–12AM,Closed,https://lh5.googleusercontent.com/p/AF1QipPRx2gHXx_chCjcBpwtSA11V3RJyuw0q8g-Jl4E=w408-h510-k-no,42.0063125,21.4064375
Turist,4,23,Restaurant,Dine-in;Takeout;Turkish,MK Maksim Gorki no.5/1 Skopje 1000,,9AM–11PM.,9AM–11PM.,9AM–11PM.,9AM–11PM.,9AM–11PM.,9AM–11PM.,9AM–11PM.,https://lh5.googleusercontent.com/p/AF1QipM_2hqk0WziqiNEp_gh2minpvyW2b_RClWSrYk=w408-h306-k-no,41.9959375,21.4299375
Taverna Trpe-Zarija,4.6,31,Restaurant,Dine-in;Takeout;Seafood,Naum Naumovski Borche 56 Skopje 1000,+389 70 806 080,8AM–1AM,8AM–1AM,8AM–1AM,8AM–1AM,8AM–1AM,8AM–1AM,8AM–1AM,https://lh5.googleusercontent.com/p/AF1QipPCYcPNUiuhtevhPisIo615pBr4sZylzOxibfXx=w426-h240-k-no,41.9991875,21.4239375
Brunch Box Eatery,4.7,100,Restaurant,Dine-in;Takeout;Delivery;,Диме Аницин 15 Skopje 1000,+389 77 661 424,8:30AM–5PM.,8:30AM–5PM.,8:30AM–5PM.,8:30AM–5PM.,8:30AM–5PM.,9:30AM–3:30PM.,Closed,https://lh5.googleusercontent.com/p/AF1QipMN17ddeENyW-awo9pYSjBqIlc7-OPu0m8PeYim=w408-h306-k-no,41.9963125,21.4155625
Day and Night Restaurant,4.3,609,Restaurant,Dine-in;Takeout;Delivery;,ul skupi bb Скопје MK MK 1000,+389 2 309 6096,9AM–12AM,9AM–12AM,9AM–12AM,9AM–12AM,9AM–1AM,9AM–1AM,Closed,https://lh5.googleusercontent.com/p/AF1QipO0rBMDXA-3ZnZ5uUAAbLGCJTmCHaR3w0XvZ4fw=w426-h240-k-no,42.0138125,21.4059375
Meana Gros,4.3,548,Restaurant,Dine-in;Takeout;,MK Nikola Rusinski 1 Skopje 1000,+389 77 973 155,8AM–12AM,8AM–12AM,8AM–12AM,8AM–12AM,8AM–12AM,8AM–12AM,8AM–12AM,https://lh5.googleusercontent.com/p/AF1QipMH2qSZwnJ1-qUB3upSNYSi67DO2NLIgggnRmx8=w408-h306-k-no,42.0034375,21.3995625
Gurman,4.5,197,Restaurant,Dine-in;Takeout;,Mother Teresa 6 Skopje 1000,+389 2 317 6200,7AM–10PM.,7AM–10PM.,7AM–10PM.,7AM–10PM.,7AM–10PM.,7AM–10PM.,Closed,https://lh5.googleusercontent.com/p/AF1QipN-6l2vETKvTXaVru7eiIw8oPzKqq1Gr2pwzBLr=w408-h244-k-no,41.9916875,21.4221875
Casa Cubana,4.3,1217,Restaurant,Dine-in;Takeout;Cuban,Кеј 13-ти Ноември b.b. Skopje 1000,+389 71 310 404,9AM–12AM,9AM–12AM,9AM–12AM,9AM–12AM,9AM–1AM,9AM–1AM,9AM–12AM,https://lh5.googleusercontent.com/p/AF1QipNZU5hkc37hAbaiXQsJYWGksTckFllgW71csmrf=w408-h306-k-no,41.9954375,21.4345625
Daily Food & Wine,4.5,845,Restaurant,Dine-in;Takeout;Italian,Vasil Gjorgov 16 Skopje 1000,+389 72 256 100,8AM–12AM,8AM–12AM,8AM–12AM,8AM–12AM,8AM–1AM,8AM–1AM,10AM–10PM.,https://lh5.googleusercontent.com/p/AF1QipOyYCTH7kwqo4tpntPAGlDKofI1F04k1Hf54O3c=w408-h335-k-no,41.9926875,21.4196875
Skara Restorant Fontana,4.7,14,Restaurant,Dine-in;Takeout;,Rajko Zhinzifov 26 Skopje 1000,+389 2 322 0088,9AM–12AM,9AM–12AM,9AM–12AM,9AM–12AM,9AM–12AM,9AM–12AM,9AM–12AM,https://lh5.googleusercontent.com/p/AF1QipPGjijiEF4ad_mt2aZ6Sy7YaCeYElE6e-53t6zV=w408-h306-k-no,41.99875,21.41875
Mama,4.5,30,Restaurant,Dine-in;Takeout;,MK Orce Nikolov 90 Skopje 1000,+389 70 222 633,10AM–6PM.,10AM–6PM.,10AM–6PM.,10AM–6PM.,10AM–6PM.,Closed,Closed,https://lh5.googleusercontent.com/p/AF1QipOBJXV6M6p9eiVZIwlq9plJ0KyIW9msLo9PbJsb=w426-h240-k-no,42.0006875,21.4250625
Marger Restaurant,4.1,723,Restaurant,Dine-in;Takeout;,Boulevard Ilinden 93 Skopje 1000,+389 2 306 7428,Closed,10AM–12AM,10AM–12AM,10AM–12AM,10AM–12AM,10AM–12AM,10AM–12AM,https://lh5.googleusercontent.com/p/AF1QipObtdOiR72LXMKwGy9FXoANnmD2gg-_iLUDc4D8=w408-h544-k-no,42.0081875,21.4139375
Gradska Kafeana Dvor,4.4,330,Restaurant,Dine-in;Takeout;,Mitropolit Teodosij Gologanov 67 Skopje 1000,+389 2 311 1261,8AM–12AM,8AM–12AM,8AM–12AM,8AM–12AM,8AM–1AM,8AM–1AM,8AM–12AM,https://lh5.googleusercontent.com/p/AF1QipMRH5tPFRRovFEjspLr_BGXLrUz-OVEuKelUKWd=w408-h544-k-no,41.9948125,21.4138125
Гостилница „Турист“,3.5,61,Restaurant,Takeout;,Old Bazaar gradishte 14 Skopje 1000,+389 71 627 393,10AM–10PM.,10AM–10PM.,10AM–10PM.,10AM–10PM.,10AM–10PM.,10AM–10PM.,10AM–10PM.,https://lh5.googleusercontent.com/p/AF1QipOeW4d12J2f1QyMbirms9CFwUAtCQzhFam0XLMD=w408-h306-k-no,42.0006875,21.4368125
Daily Food & Wine Lisa,4.5,464,Restaurant,Dine-in;Takeout;,Vidoe Smilevski Bato 8 Skopje 1000,+389 70 358 500,8AM–12AM,8AM–12AM,8AM–12AM,8AM–12AM,8AM–12AM,8AM–1AM,8AM–10PM.,https://lh5.googleusercontent.com/p/AF1QipNNei7SomJZwEn-fbHQLusWf3_9wgBZClp0fGZV=w408-h306-k-no,41.9813125,21.4728125
Restaurant Amanet,4.3,15,Restaurant,Dine-in;Takeout;,Jordan Mijalkov 62 Skopje 1000,+389 2 311 0029,9AM–12AM,9AM–12AM,9AM–12AM,9AM–12AM,9AM–12AM,9AM–12AM,9AM–12AM,https://lh5.googleusercontent.com/p/AF1QipNs_2P1eZbndl4fHqmjzivKE_zGnG6W8lFccqsU=w408-h532-k-no,41.9880625,21.4314375
Kantina,4.4,35,Restaurant,Dine-in;Takeout;Delivery;,Radnjanska 6 Skopje 1000,+389 70 222 137,8AM–12AM,8AM–12AM,8AM–12AM,8AM–12AM,8AM–1AM,8:30AM–1AM,8:30AM–12AM,https://lh5.googleusercontent.com/p/AF1QipOq7mKPVUhR8pypKunlMU4BlYW1KFohRd_-5dm3=w408-h306-k-no,42.0006875,21.4189375
Debar Maalo Skopje,4.4,1576,Restaurant,Dine-in;Curbside pickup;,Orce Nikolov 136 Skopje 1000,+389 70 272 766,8AM–12AM,8AM–12AM,8AM–12AM,8AM–12AM,8AM–1AM,12PM.–1AM,12–8PM.,https://lh5.googleusercontent.com/p/AF1QipMG2gULRT8hxEnDkk4Hsp0yimMX3Cf5ZlTN4__b=w426-h240-k-no,42.0035625,21.4168125
The House - Fine dine & Wine restaurant,4.4,24,Restaurant,Dine-in;Takeout;,Stiv Naumov D 102 Skopje 1000,+389 2 820 0311,7AM–11:55PM.,7AM–11:55PM.,7AM–11:55PM.,7AM–11:55PM.,7AM–11:55PM.,7AM–11:55PM.,7AM–11:55PM.,https://lh5.googleusercontent.com/p/AF1QipOpukH39n8hXGM-HQOsI0CAiB2Z9RfhfSyhfXUn=w408-h306-k-no,41.9899375,21.4366875
Fontana Grill,4.5,15,Restaurant,Dine-in;Takeout;,Rajko Zhinzifov 26 Skopje 1000,+389 77 551 389,9AM–11PM.,9AM–11PM.,9AM–11PM.,9AM–11PM.,9AM–11PM.,9AM–11PM.,1–9PM.,https://lh5.googleusercontent.com/p/AF1QipNiHHtaP-a3mL8ZFVG6GfHh-XB9UF1CzxHMvWVg=w408-h306-k-no,41.99875,21.41875
Park,4.3,336,Restaurant,Dine-in;Takeout;,Ul Кеј 13-ти Ноември 4A Skopje 1000,+389 72 226 123,Closed,10AM–12AM,10AM–12AM,10AM–12AM,10AM–12AM,3PM.–12AM,3PM.–12AM,https://lh5.googleusercontent.com/p/AF1QipOQibtnlNbKDJRkqrsUfS_Sucyu_wftAjt42OmU=w426-h240-k-no,42.0035625,21.4279375
Madjo 2.0,4.4,436,Restaurant,Dine-in;Takeout;Delivery;,MK Mihail Cokov 8a Skopje 1000,+389 78 428 300,10AM–12AM,10AM–12AM,10AM–12AM,10AM–12AM,10AM–12AM,10AM–12AM,10AM–12AM,https://lh5.googleusercontent.com/p/AF1QipMpfMf9lqS4lqHGhcEqB6lmSvgkCm-HnMTXXeJF=w408-h271-k-no,42.0025625,21.4219375
Гранче,4.8,126,Restaurant,Dine-in;Takeout;,Sv. Kiril i Metodij 1000 Skopje 1000,+389 70 353 668,10AM–3PM.,10AM–3PM.,10AM–3PM.,10AM–3PM.,10AM–3PM.,10AM–3PM.,Closed,https://lh5.googleusercontent.com/p/AF1QipO4wNcInJDp_xOEGSyoDXEwEwPu5-kg04eD4CzM=w408-h544-k-no,41.9899375,21.4329375
Teteks 2,4.2,336,Restaurant,Dine-in;Takeout;Fast food,Ulica Bitpazarska br.92 Skopje 1000,+389 77 557 555,8AM–12AM,8AM–12AM,8AM–12AM,8AM–12AM,8AM–12AM,8AM–12AM,8AM–12AM,https://lh5.googleusercontent.com/p/AF1QipP3cNzZL42Gw4ggSon_91JrXDweIHmIQbzgo-gs=w408-h272-k-no,42.0020625,21.4385625
Star Ocean Restaurant,3.9,525,Restaurant,Dine-in;Takeout;No-contact delivery;Chinese,Лермонтова 19 Скопје 1000,+389 2 322 2723,10AM–12AM,10AM–12AM,10AM–12AM,10AM–12AM,10AM–1AM,11AM–1AM,11AM–12AM,https://lh5.googleusercontent.com/p/AF1QipN-ceOT2-OTxgD6K8vzuTTp03_4EuVUxO2hlhNv=w408-h273-k-no,41.9958125,21.4270625
Dneven Prestoj - Boemska ulica,4.1,568,Restaurant,Dine-in;Takeout;Delivery;,Gjorgji Peshkov 5 Skopje 1000,+389 2 310 0605,9AM–12AM,9AM–12AM,9AM–12AM,9AM–12AM,9AM–1AM,9AM–1AM,9AM–12AM,https://lh5.googleusercontent.com/p/AF1QipPWsqE0-aXpGZ7ZkrMcQnNdn-7W0oF_rqbwG96D=w513-h240-k-no,42.0019375,21.4224375
Public Room,4.5,1895,Restaurant,Dine-in;Takeout;,MK 50-та Дивизија 22 Skopje 1000,+389 78 250 554,8AM–12AM,8AM–12AM,8AM–12AM,8AM–12AM,8AM–1AM,9AM–1AM,9AM–12AM,https://lh5.googleusercontent.com/p/AF1QipPaE076tWBMfYfHLHHFC7MAVOFx4sLpyaaRxUh7=w408-h279-k-no,41.9899375,21.4259375
Bella Vista - Lounge Bar & Restaurant,4.2,1575,Restaurant,Dine-in;Takeout;Italian,Kej 13 noemvri Skopje,+389 78 255 842,8AM–12AM,8AM–12AM,8AM–12AM,8AM–12AM,8AM–1AM,8AM–1AM,8AM–12AM,https://lh5.googleusercontent.com/p/AF1QipORiE2QIuoA4dshoCgIhyh34cYxQkolYU2mr29F=w408-h272-k-no,41.9953125,21.4350625
Rulet,4.4,343,Restaurant,Dine-in;Takeout;Barbecue,Simeon Kavrakirov 9 Skopje 1000,+389 75 414 999,8AM–12AM,8AM–12AM,8AM–12AM,8AM–12AM,8AM–1AM,10AM–1AM,Closed,https://lh5.googleusercontent.com/p/AF1QipPTB7wY2F-6aspvs8qGvToLSvKJMAEGpiNIEA4K=w408-h306-k-no,41.9893125,21.4465625
Crispy - Chimney Cakes & Coffee,5,24,Restaurant,Dine-in;Takeout;,Bul Blvd Partizanski Odredi Br.64b Skopje 1000 Skopje,+389 76 455 501,9AM–10PM.,9AM–10PM.,9AM–10PM.,9AM–10PM.,9AM–10PM.,9AM–10PM.,Closed,https://lh5.googleusercontent.com/p/AF1QipPNbpKXXx14PGo5-c4HaYYsRBu3OLhGNqIgvme2=w408-h452-k-no,42.0033125,21.3986875
Kej,4.2,363,Restaurant,Dine-in;Takeout;Eastern European,Kej 13th November 34 Skopje 1000,+389 2 323 3764,8AM–1:15AM,8AM–1:15AM,8AM–1:15AM,8AM–1:15AM,8AM–1:15AM,8AM–1:15AM,8AM–1:15AM,https://lh5.googleusercontent.com/p/AF1QipNjyPoBxwEGKft_GEWET9hSkXloqhHdL_FiV_Au=w408-h306-k-no,41.9944375,21.4414375
MoonLight,4.3,79,Restaurant,Dine-in;Takeout;,Drezdenska 19 lamela 2 lokal 9 Skopje 1000,+389 71 533 001,8AM–12AM,8AM–12AM,8AM–12AM,8AM–12AM,8AM–12AM,9AM–12AM,Closed,https://lh5.googleusercontent.com/p/AF1QipNJifP_qDZaymCADzjyxlokgpPql81x4NuDwOsf=w408-h544-k-no,41.9993125,21.4053125
Fitness House,4.3,576,Restaurant,Dine-in;Takeout;Delivery;,Bul. Partizanski Odredi Br. 40 Blvd. Partizanski Odredi 40 Skopje 1000,+389 72 699 999,8AM–12AM,8AM–12AM,8AM–12AM,8AM–12AM,8AM–1AM,10AM–1AM,10AM–12AM,https://lh5.googleusercontent.com/p/AF1QipNovv-mEXL8cKN2gUmS3JqniNl6WgHILDsD6KS1=w426-h240-k-no,42.0005625,21.4146875
Food Corner & Delivery,4.6,17,Restaurant,Takeout;Delivery;,blvd. Gotse Deltchev skopje 1000,+389 70 228 203,8AM–5PM.,8AM–5PM.,8AM–5PM.,8AM–5PM.,8AM–5PM.,Closed,Closed,https://lh5.googleusercontent.com/p/AF1QipNcM9B-92SmTXONBRsbH8ZGaDkdT7QCMBhECpb0=w426-h240-k-no,41.9981875,21.4436875
Gama,4.5,498,Restaurant,Dine-in;Takeout;,9 Boulevard Jane Sandanski 62 Skopje 1000,,8AM–12AM,8AM–12AM,8AM–12AM,8AM–12AM,8AM–12AM,8AM–1AM,8AM–12AM,https://lh5.googleusercontent.com/p/AF1QipN2f98GdaMecE6_qneqOfU1fNBHNxIxmkMp9wSz=w521-h240-k-no,41.9853125,21.4655625
Food Service (aka 5ka),4.6,14,Restaurant,Dine-in;Takeout;,3rd Macedonian Brigade Skopje 1000,+389 76 361 230,7AM–6PM.,7AM–6PM.,7AM–6PM.,7AM–6PM.,7AM–6PM.,9AM–3PM.,Closed,https://lh5.googleusercontent.com/p/AF1QipMvI3X8FLRdQ6Fp7CIPqBR2fwtOyUqvs-eZT4GE=w408-h544-k-no,41.9814375,21.4533125
Teteks 5,4.5,75,Restaurant,Dine-in;Curbside pickup;Delivery;Fast food,ul Orce Nikolov 206 Skopje 1000,+389 76 445 544,8AM–11PM.,8AM–11PM.,8AM–11PM.,8AM–11PM.,8AM–11PM.,8AM–11PM.,12PM.–12AM,https://lh5.googleusercontent.com/p/AF1QipPGCUX0NdvpDl6mXvHGIGAmkVP8050vm4PHW9gx=w408-h306-k-no,42.0054375,21.4099375
SushiCo,4.3,751,Restaurant,Dine-in;Takeout;No-contact delivery;Japanese,MK MK Leninova 29 Skopje 1000,+389 2 321 7874,10AM–12AM,10AM–12AM,10AM–12AM,10AM–12AM,10AM–12AM,10AM–12AM,10AM–12AM,https://lh5.googleusercontent.com/p/AF1QipNEuU1rW2GP7ThXG58fL9xfCms4YUkM_-NkprqA=w426-h240-k-no,41.9996875,21.4238125
Street Food,4.3,23,Restaurant,Dine-in;Curbside pickup;Fast food,MK Nikola Rusinski 3a Skopje 1000,+389 75 251 443,9AM–9PM.,9AM–9PM.,9AM–9PM.,9AM–9PM.,9AM–9PM.,9AM–9PM.,Closed,https://lh5.googleusercontent.com/p/AF1QipMNV5u33PE0gDsW-_s3J8IDYDTF8UWZN2mEO7wJ=w408-h544-k-no,42.0039375,21.3985625
Гостилница/Скара на кило ЈАКАБО,4.2,31,Restaurant,Dine-in;Takeout;,Angel Dimovski 4 Skopje 1000,+389 71 774 269,9AM–8PM.,9AM–8PM.,9AM–8PM.,9AM–8PM.,9AM–8PM.,10AM–6PM.,10AM–6PM.,https://lh5.googleusercontent.com/p/AF1QipPjLjT--JZAiuUxWm9bWQFY6O_ppWjSFpWN40uz=w408-h306-k-no,41.9845625,21.4591875
Creperie,4.8,47,Restaurant,Dine-in;Curbside pickup;,ul MK Cvetan Dimov br.192 Skopje 1000,+389 75 246 413,5PM.–12AM,5PM.–12AM,5PM.–12AM,5PM.–12AM,5PM.–1AM,5PM.–1AM,5PM.–12AM,https://lh5.googleusercontent.com/p/AF1QipNNxdqdbHoYESqifmucb67VjemexJZNH9OCFma2=w408-h525-k-no,42.0121875,21.4454375
Sultan Lounge Restaurant,4.2,32,Restaurant,Dine-in;,Butel Skopje 1000,+389 70 337 112,8AM–1AM,8AM–1AM,8AM–1AM,8AM–1AM,8AM–1AM,8AM–1AM,8AM–1AM,https://lh5.googleusercontent.com/p/AF1QipOUuPLhT4zDzqh2AjQzlqDlfrlwctkSToa-e5Rj=w408-h544-k-no,42.0241875,21.4496875
ДежаВу - Капитол мол,4,1714,Restaurant,Dine-in;Curbside pickup;No-contact delivery;Mediterranean,Boulevard Jane Sandanski 71A Skopje 1000,+389 76 304 009,8AM–12AM,8AM–12AM,8AM–12AM,8AM–12AM,8AM–12AM,8AM–12AM,8AM–12AM,https://lh5.googleusercontent.com/p/AF1QipMhzZlfTrcJ51HxNOoq-wpxzQralrKDtrdodgd9=w426-h240-k-no,41.9859375,21.4661875
Ljuc,4.3,316,Restaurant,Dine-in;Takeout;,Jordan Mijalkov Железничка б.б. Skopje 1000,+389 77 594 039,11AM–6PM.,10AM–6PM.,10AM–6PM.,10AM–6PM.,10AM–6PM.,10AM–6PM.,Closed,https://lh5.googleusercontent.com/p/AF1QipP2DVsetcAFV0fe36W3tJUkkfZALpsY58g-dlS-=w408-h306-k-no,41.9891875,21.4294375
Garden Cafe & Restaurant,4.6,8,Restaurant,Dine-in;Takeout;,Chair Skopje skopje MK 1000,+389 70 687 363,9AM–12AM,9AM–12AM,9AM–12AM,9AM–12AM,9AM–12AM,9AM–12AM,9AM–11:30PM.,https://lh5.googleusercontent.com/p/AF1QipNM6xSQtUQc3Xz2f4PF1mVYPimd4rTHtC53RilK=w426-h240-k-no,42.0140625,21.4441875
7 Skara Restoran,4.6,329,Restaurant,Dine-in;Takeout;Barbecue,MK Vasil Glavinov Skopje 1000,+389 2 322 4000,9AM–12AM,9AM–12AM,9AM–12AM,9AM–12AM,9AM–12AM,9AM–12AM,Closed,https://lh5.googleusercontent.com/p/AF1QipNmRZfjM7Y4UjcU4dpX5jMl3_UBEDcFqHyZZYFh=w408-h262-k-no,41.9949375,21.4275625
Špajz,4.1,478,Restaurant,Dine-in;Takeout;,Gjorgji Peshkov 10 Skopje 1000,+389 75 243 663,8AM–12AM,8AM–12AM,8AM–12AM,8AM–12AM,8AM–1AM,8AM–1AM,8AM–12AM,https://lh5.googleusercontent.com/p/AF1QipNoPZdusszMGzUpZhMnEDma4a4edf46g-Vqsr70=w408-h544-k-no,42.0018125,21.4219375
Paradise Food,4.7,75,Restaurant,Dine-in;Takeout;No-contact delivery;Vegan,Dame Gruev broj 7 Skopje 1000,+389 76 424 104,8AM–8PM.,8AM–8PM.,8AM–8PM.,8AM–8PM.,8AM–4PM.,Closed,8AM–8PM.,https://lh5.googleusercontent.com/p/AF1QipNM-Xs_dir1MvQb0nJe_CbT0Ide3mAWaaGhTqFa=w427-h240-k-no,41.9944375,21.4275625
Old Balkan National Restaurant,4.1,9,Restaurant,Dine-in;Takeout;,28 Local 13 Bit Pazarska,+389 70 713 333,8AM–8PM.,8AM–8PM.,8AM–8PM.,8AM–8PM.,8AM–8PM.,8AM–8PM.,8AM–8PM.,https://lh5.googleusercontent.com/p/AF1QipMxlVYz-Xkss4mgEUXYGUm1dZ3T-gd7dJcY-f_2=w408-h306-k-no,42.0010625,21.4380625
Bien,4.2,221,Restaurant,Dine-in;Takeout;,23 Oktomvri 11a Skopje 1000,+389 70 822 799,8AM–12AM,8AM–12AM,8AM–12AM,8AM–12AM,8AM–12AM,8AM–12AM,8AM–12AM,https://lh5.googleusercontent.com/p/AF1QipPpwy1-bglyCLDRCsfQChVAfQbBLseu1ddukROX=w427-h240-k-no,41.9916875,21.4521875
Delfin,4.4,18,Restaurant,Dine-in;Takeout;,Green Market 11th October St. 16 Skopje 1000,+389 2 322 3021,9AM–11PM.,9AM–11PM.,9AM–11PM.,9AM–11PM.,9AM–11PM.,9AM–11PM.,9AM–11PM.,https://lh5.googleusercontent.com/p/AF1QipNpkk0qGInlF_l8JapWZq6a0-ChnACxNL0wNLaR=w493-h240-k-no,41.9915625,21.4336875
Vega,4.4,121,Restaurant,Dine-in;Takeout;Vegan,Franklin Ruzvelt 20 Skopje 1000,+389 2 312 3402,8AM–8PM.,8AM–8PM.,8AM–8PM.,8AM–8PM.,8AM–8PM.,9AM–2PM.,Closed,https://lh5.googleusercontent.com/p/AF1QipNH_Gk_EzCZ8QbFFxYDlFTNK9ChNjx9GVNUD-B-=w408-h306-k-no,41.9994375,21.4130625
Restaurant Pizzeria Plus,4,3,Restaurant,Dine-in;Takeout;,Chair Skopje Skopje MK 1000,+389 72 733 125,7AM–12AM,7AM–12AM,12AM-12AM,7AM–12AM,7AM–12AM,7AM–12AM,7AM–12AM,https://lh5.googleusercontent.com/p/AF1QipPWvSGix3FQOZCwHX7cdJ4C47i0pOXzQATIwfQd=w408-h816-k-no,42.0173125,21.4448125
Pizzeria Luna,5,2,Restaurant,Dine-in;Takeout;,Macedonia Square Skopje Skopje 1000,+389 70 737 140,8AM–12AM,8AM–12AM,8AM–12AM,8AM–12AM,8AM–12AM,8AM–12AM,8AM–12AM,https://lh5.googleusercontent.com/p/AF1QipNhHdjfUmGa8plJxwyGUZhf2dl_x1PuRbOz2pV1=w408-h306-k-no,42.0158125,21.4359375
Dren Restaurant / ДРЕН Ресторан,4.6,59,Restaurant,Dine-in;Takeout;Vegan,MK MK New Delhi Rd 13 Skopje 1000,+389 75 287 319,9AM–12AM,9AM–12AM,9AM–12AM,9AM–12AM,9AM–12AM,9AM–12AM,10AM–6PM.,https://lh5.googleusercontent.com/p/AF1QipNn7aTqNCzfxX-qdgN7SFYiXVJSHq-39GmnMH9U=w408-h544-k-no,41.9971875,21.4060625
Kiosk Burger Bar,4.3,887,Restaurant,Dine-in;Takeout;Delivery;Hamburger,Leninova 64 Skopje 1000,+389 77 408 777,9AM–12AM,9AM–12AM,9AM–12AM,9AM–12AM,9AM–12AM,12PM.–12AM,1–10PM.,https://lh5.googleusercontent.com/p/AF1QipNEjNpYbld9cMS_yof3_wdTj13WIgk9ri9aXrY3=w408-h544-k-no,41.9963125,21.4220625
